[
  {
    "id":"8",
    "hex_color":"FFCD1C",
    "name":"Калининская",
    "stations":[
      {
        "id":"8.189",
        "name":"Нескінченне Підняття Рівня в Мурімі",
        "lat":55.745113,
        "lng":37.864052,
        "order":0
      },
      {
        "id":"8.88",
        "name":"Обмежений в часі Темний лицар",
        "lat":55.752237,
        "lng":37.814587,
        "order":1
      },
      {
        "id":"8.107",
        "name":"Твоя безкінечна брехня",
        "lat":55.75098,
        "lng":37.78422,
        "order":2
      },
      {
        "id":"8.158",
        "name":"Наглядач, що охороняє відьом ",
        "lat":55.75809,
        "lng":37.751703,
        "order":3
      },
      {
        "id":"8.1",
        "name":"Дорогий наслідний принц, я захищу це життя",
        "lat":55.751933,
        "lng":37.717444,
        "order":4
      },
      {
        "id":"8.112",
        "name":"Вчитель Святих Сузір'їв",
        "lat":55.747115,
        "lng":37.680726,
        "order":5
      },
      {
        "id":"8.78",
        "name":"Виходь заміж за мого чоловіка",
        "lat":55.740746,
        "lng":37.65604,
        "order":6
      },
      {
        "id":"8.91",
        "name":"Посунься, я сама оберу кінцівку",
        "lat":55.741125,
        "lng":37.626142,
        "order":7
      },
      {
        "id":"8.594",
        "name":"Страший брат-наставник лиходій, а всі сестри-наставниці ЯНДЄРЕ",
        "lat":55.79233,
        "lng":37.55952,
        "order":8
      },
      {
        "id":"8.592",
        "name":"Ніжна та наполеглива одержимість",
        "lat":55.78643,
        "lng":37.53502,
        "order":9
      },
      {
        "id":"8.595",
        "name":"На цей раз, я буду господаркою свого життя",
        "lat":55.77643,
        "lng":37.51981,
        "order":10
      },
      {
        "id":"8.593",
        "name":"Перезавантаження кохання",
        "lat":55.75723,
        "lng":37.52571,
        "order":11
      },
      {
        "id":"8.468",
        "name":"Спокута графа Ноттінгема",
        "lat":55.7491,
        "lng":37.5395,
        "order":12
      },
      {
        "id":"8.470",
        "name":"Та Нянь Сяояо",
        "lat":55.736478,
        "lng":37.514401,
        "order":13
      },
      {
        "id":"8.555",
        "name":"Леді, що розірвала заручини, одержима лише фіналом",
        "lat":55.7232,
        "lng":37.5038,
        "order":14
      },
      {
        "id":"8.556",
        "name":"Золотий досвід",
        "lat":55.7055,
        "lng":37.5225,
        "order":15
      },
      {
        "id":"8.557",
        "name":"100 днів романтики",
        "lat":55.6961,
        "lng":37.505,
        "order":16
      },
      {
        "id":"8.607",
        "name":"Один у полі воїн",
        "lat":55.6888,
        "lng":37.485,
        "order":17
      },
      {
        "id":"8.608",
        "name":"Цивілізація мудреців",
        "lat":55.6698,
        "lng":37.4495,
        "order":18
      },
      {
        "id":"8.609",
        "name":"Я нікчемна мачуха, але шалено люблю свою сім'ю",
        "lat":55.6588,
        "lng":37.4174,
        "order":19
      },
      {
        "id":"8.610",
        "name":"Як демон-імператор став дворецьким",
        "lat":55.649,
        "lng":37.3911,
        "order":20
      },
      {
        "id":"8.611",
        "name":"Боровское шоссе",
        "lat":55.647,
        "lng":37.3701,
        "order":21
      },
      {
        "id":"8.612",
        "name":"Я потрапив у світ жахів із системою багатства" ,
        "lat":55.6385,
        "lng":37.3544,
        "order":22
      },
      {
        "id":"8.613",
        "name":"Регресія Занепалого Сузір'я",
        "lat":55.6324,
        "lng":37.3328,
        "order":23
      }
      {
        "id":"8.613",
        "name":"Реінкарнація гобліна рангу SSS",
        "lat":55.6324,
        "lng":37.3328,
        "order":23
      }
      {
        "id":"8.613",
        "name":"Вбити лиходія",
        "lat":55.6324,
        "lng":37.3328,
        "order":23
      }
      {
        "id":"8.613",
        "name":"Моє переродження в древо: Початок еволюції",
        "lat":55.6324,
        "lng":37.3328,
        "order":23
      }
      {
        "id":"8.613",
        "name":"Цар звірів",
        "lat":55.6324,
        "lng":37.3328,
        "order":23
      }
      {
        "id":"8.613",
        "name":"Повернення темного мага",
        "lat":55.6324,
        "lng":37.3328,
        "order":23
      }
      {
        "id":"8.613",
        "name":"Молодший син сім'ї Пен із Хебея",
        "lat":55.6324,
        "lng":37.3328,
        "order":23
      }
      {
        "id":"8.613",
        "name":"Молодший син клану Намгун",
        "lat":55.6324,
        "lng":37.3328,
        "order":23
      }
    ]
  },
  {
    "id":"2",
    "hex_color":"4FB04F",
    "name":"Замоскворецкая",
    "stations":[
      {
        "id":"2.558",
        "name":"Ховрино",
        "lat":55.8777,
        "lng":37.4877,
        "order":0
      },
      {
        "id":"2.125",
        "name":"Речной вокзал",
        "lat":55.854152,
        "lng":37.476728,
        "order":1
      },
      {
        "id":"2.29",
        "name":"Водный стадион",
        "lat":55.838978,
        "lng":37.487515,
        "order":2
      },
      {
        "id":"2.30",
        "name":"Войковская",
        "lat":55.818923,
        "lng":37.497791,
        "order":3
      },
      {
        "id":"2.133",
        "name":"Сокол",
        "lat":55.805564,
        "lng":37.515245,
        "order":4
      },
      {
        "id":"2.12",
        "name":"Аэропорт",
        "lat":55.800441,
        "lng":37.530477,
        "order":5
      },
      {
        "id":"2.34",
        "name":"Динамо",
        "lat":55.789704,
        "lng":37.558212,
        "order":6
      },
      {
        "id":"2.19",
        "name":"Белорусская",
        "lat":55.777439,
        "lng":37.582107,
        "order":7
      },
      {
        "id":"2.80",
        "name":"Маяковская",
        "lat":55.769808,
        "lng":37.596192,
        "order":8
      },
      {
        "id":"2.122",
        "name":"Тверская",
        "lat":55.765343,
        "lng":37.603918,
        "order":9
      },
      {
        "id":"2.99",
        "name":"Театральная",
        "lat":55.758808,
        "lng":37.61768,
        "order":10
      },
      {
        "id":"2.89",
        "name":"Новокузнецкая",
        "lat":55.742391,
        "lng":37.62928,
        "order":11
      },
      {
        "id":"2.101",
        "name":"Павелецкая",
        "lat":55.729741,
        "lng":37.638693,
        "order":12
      },
      {
        "id":"2.2",
        "name":"Автозаводская",
        "lat":55.706634,
        "lng":37.657008,
        "order":13
      },
      {
        "id":"2.512",
        "name":"Технопарк",
        "lat":55.695,
        "lng":37.664167,
        "order":14
      },
      {
        "id":"2.53",
        "name":"Коломенская",
        "lat":55.677423,
        "lng":37.663719,
        "order":15
      },
      {
        "id":"2.45",
        "name":"Каширская",
        "lat":55.655745,
        "lng":37.649683,
        "order":16
      },
      {
        "id":"2.42",
        "name":"Кантемировская",
        "lat":55.636107,
        "lng":37.656218,
        "order":17
      },
      {
        "id":"2.153",
        "name":"Царицыно",
        "lat":55.620982,
        "lng":37.669612,
        "order":18
      },
      {
        "id":"2.96",
        "name":"Орехово",
        "lat":55.61269,
        "lng":37.695214,
        "order":19
      },
      {
        "id":"2.38",
        "name":"Домодедовская",
        "lat":55.610131,
        "lng":37.717111,
        "order":20
      },
      {
        "id":"2.57",
        "name":"Красногвардейская",
        "lat":55.614075,
        "lng":37.742697,
        "order":21
      },
      {
        "id":"2.257",
        "name":"Алма-Атинская",
        "lat":55.63349,
        "lng":37.765678,
        "order":22
      }
    ]
  },
  {
    "id":"6",
    "hex_color":"F07E24",
    "name":"Калужско-Рижская",
    "stations":[
      {
        "id":"6.81",
        "name":"Медведково",
        "lat":55.888103,
        "lng":37.661562,
        "order":0
      },
      {
        "id":"6.13",
        "name":"Бабушкинская",
        "lat":55.870641,
        "lng":37.664341,
        "order":1
      },
      {
        "id":"6.129",
        "name":"Свиблово",
        "lat":55.855558,
        "lng":37.653379,
        "order":2
      },
      {
        "id":"6.24",
        "name":"Ботанический сад",
        "lat":55.844597,
        "lng":37.637811,
        "order":3
      },
      {
        "id":"6.27",
        "name":"ВДНХ",
        "lat":55.819626,
        "lng":37.640751,
        "order":4
      },
      {
        "id":"6.8",
        "name":"Алексеевская",
        "lat":55.807794,
        "lng":37.638699,
        "order":5
      },
      {
        "id":"6.126",
        "name":"Рижская",
        "lat":55.792494,
        "lng":37.636114,
        "order":6
      },
      {
        "id":"6.120",
        "name":"Проспект Мира",
        "lat":55.781827,
        "lng":37.633199,
        "order":7
      },
      {
        "id":"6.137",
        "name":"Сухаревская",
        "lat":55.772315,
        "lng":37.63285,
        "order":8
      },
      {
        "id":"6.144",
        "name":"Тургеневская",
        "lat":55.765371,
        "lng":37.636732,
        "order":9
      },
      {
        "id":"6.50",
        "name":"Китай-город",
        "lat":55.756498,
        "lng":37.631326,
        "order":10
      },
      {
        "id":"6.90",
        "name":"Третьяковская",
        "lat":55.74073,
        "lng":37.625624,
        "order":11
      },
      {
        "id":"6.94",
        "name":"Октябрьская",
        "lat":55.731232,
        "lng":37.612851,
        "order":12
      },
      {
        "id":"6.157",
        "name":"Шаболовская",
        "lat":55.718828,
        "lng":37.607892,
        "order":13
      },
      {
        "id":"6.74",
        "name":"Ленинский проспект",
        "lat":55.70678,
        "lng":37.58499,
        "order":14
      },
      {
        "id":"6.3",
        "name":"Академическая",
        "lat":55.687147,
        "lng":37.5723,
        "order":15
      },
      {
        "id":"6.121",
        "name":"Профсоюзная",
        "lat":55.677671,
        "lng":37.562595,
        "order":16
      },
      {
        "id":"6.92",
        "name":"Новые Черемушки",
        "lat":55.670077,
        "lng":37.554493,
        "order":17
      },
      {
        "id":"6.41",
        "name":"Калужская",
        "lat":55.656682,
        "lng":37.540075,
        "order":18
      },
      {
        "id":"6.21",
        "name":"Беляево",
        "lat":55.642357,
        "lng":37.526115,
        "order":19
      },
      {
        "id":"6.56",
        "name":"Коньково",
        "lat":55.631857,
        "lng":37.519156,
        "order":20
      },
      {
        "id":"6.140",
        "name":"Теплый Стан",
        "lat":55.61873,
        "lng":37.505912,
        "order":21
      },
      {
        "id":"6.164",
        "name":"Ясенево",
        "lat":55.606182,
        "lng":37.5334,
        "order":22
      },
      {
        "id":"6.23",
        "name":"Новоясеневская",
        "lat":55.601947,
        "lng":37.553017,
        "order":23
      }
    ]
  },
  {
    "id":"1",
    "hex_color":"E42313",
    "name":"Сокольническая",
    "stations":[
      {
        "id":"1.148",
        "name":"Бульвар Рокоссовского",
        "lat":55.814916,
        "lng":37.732227,
        "order":0
      },
      {
        "id":"1.155",
        "name":"Черкизовская",
        "lat":55.802787,
        "lng":37.744863,
        "order":1
      },
      {
        "id":"1.117",
        "name":"Преображенская площадь",
        "lat":55.796322,
        "lng":37.713582,
        "order":2
      },
      {
        "id":"1.134",
        "name":"Сокольники",
        "lat":55.789282,
        "lng":37.679895,
        "order":3
      },
      {
        "id":"1.60",
        "name":"Красносельская",
        "lat":55.780014,
        "lng":37.666097,
        "order":4
      },
      {
        "id":"1.54",
        "name":"Комсомольская",
        "lat":55.774072,
        "lng":37.654565,
        "order":5
      },
      {
        "id":"1.61",
        "name":"Красные ворота",
        "lat":55.768307,
        "lng":37.6478,
        "order":6
      },
      {
        "id":"1.143",
        "name":"Чистые пруды",
        "lat":55.76499,
        "lng":37.638293,
        "order":7
      },
      {
        "id":"1.66",
        "name":"Лубянка",
        "lat":55.759889,
        "lng":37.625336,
        "order":8
      },
      {
        "id":"1.98",
        "name":"Охотный ряд",
        "lat":55.757228,
        "lng":37.615078,
        "order":9
      },
      {
        "id":"1.4",
        "name":"Библиотека им.Ленина",
        "lat":55.752123,
        "lng":37.610388,
        "order":10
      },
      {
        "id":"1.64",
        "name":"Кропоткинская",
        "lat":55.745297,
        "lng":37.604217,
        "order":11
      },
      {
        "id":"1.103",
        "name":"Парк культуры",
        "lat":55.736163,
        "lng":37.595027,
        "order":12
      },
      {
        "id":"1.152",
        "name":"Фрунзенская",
        "lat":55.727462,
        "lng":37.58022,
        "order":13
      },
      {
        "id":"1.135",
        "name":"Спортивная",
        "lat":55.722388,
        "lng":37.562041,
        "order":14
      },
      {
        "id":"1.165",
        "name":"Воробьевы горы",
        "lat":55.709169,
        "lng":37.557293,
        "order":15
      },
      {
        "id":"1.149",
        "name":"Университет",
        "lat":55.69329,
        "lng":37.534511,
        "order":16
      },
      {
        "id":"1.118",
        "name":"Проспект Вернадского",
        "lat":55.676549,
        "lng":37.504584,
        "order":17
      },
      {
        "id":"1.162",
        "name":"Юго-Западная",
        "lat":55.663146,
        "lng":37.482852,
        "order":18
      },
      {
        "id":"1.505",
        "name":"Тропарево",
        "lat":55.6459,
        "lng":37.4725,
        "order":19
      },
      {
        "id":"1.513",
        "name":"Румянцево",
        "lat":55.633,
        "lng":37.4419,
        "order":20
      },
      {
        "id":"1.514",
        "name":"Саларьево",
        "lat":55.6227,
        "lng":37.424,
        "order":21
      }
    ]
 
